[
   {
      "lat":42.6993922,
      "lon":23.31209709999996,
      "name":"Опълченска",
      "line": "red"
   },
   {
      "lat":42.6593924,
      "lon":23.31654400000002,
      "name":"Метростанция Витоша",
      "line": "blue"
   },
   {
      "lat":42.65889320000001,
      "lon":23.39463969999997,
      "name":"Дружба",
      "line": "red"
   },
   {
      "lat":42.71394,
      "lon":23.313824000000068,
      "name":"Княгиня Мария Луиза",
      "line": "blue"
   },
   {
      "lat":42.701834,
      "lon":23.29861200000005,
      "name":"Константин Величков",
      "line": "red"
   },
   {
      "lat":42.7107582,
      "lon":23.320057099999985,
      "name":"Централна ЖП гара",
      "line": "blue"
   },
   {
      "lat":42.705471,
      "lon":23.323861999999963,
      "name":"Лъвов мост",
      "line": "blue"
   },
   {
      "lat":42.697858,
      "lon":23.321145,
      "name":"Сердика 1",
      "line": "red"
   },
   {
      "lat":42.697858,
      "lon":23.321145,
      "name":"Сердика 2",
      "line": "blue"
   },
   {
      "lat":42.72294999999999,
      "lon":23.306568999999968,
      "name":"Хан Кубрат",
      "line": "blue"
   },
   {
      "lat":42.705928,
      "lon":23.28489300000001,
      "name":"Вардар",
      "line": "red"
   },
   {
      "lat":42.689285,
      "lon":23.319065000000023,
      "name":"НДК",
      "line": "blue"
   },
   {
      "lat":42.728,
      "lon":23.300944999999956,
      "name":"Надежда",
      "line": "blue"
   },
   {
      "lat":42.692176,
      "lon":23.334744999999998,
      "name":"Софийски Университет Св. Климент Охридски",
      "line": "red"
   },
   {
      "lat":42.711072,
      "lon":23.270721999999978,
      "name":"Западен Парк",
      "line": "red"
   },
   {
      "lat":42.686027,
      "lon":23.332052999999974,
      "name":"Стадион Васил Левски",
      "line": "red"
   },
   {
      "lat":42.735618,
      "lon":23.292641000000003,
      "name":"Бели дунав",
      "line": "blue"
   },
   {
      "lat":42.678693,
      "lon":23.321736999999985,
      "name":"Европейски съюз",
      "line": "blue"
   },
   {
      "lat":42.740461,
      "lon":23.287327000000005,
      "name":"Ломско шосе",
      "line": "blue"
   },
   {
      "lat":42.67108899999999,
      "lon":23.320685000000026,
      "name":"Джеймс Баучер",
      "line": "blue"
   },
   {
      "lat":42.72642,
      "lon":23.26184999999998,
      "name":"Сливница",
      "line": "red"
   },
   {
      "lat":42.718397,
      "lon":23.257235000000037,
      "name":"Люлин",
      "line": "red"
   },
   {
      "lat":42.741024,
      "lon":23.27651000000003,
      "name":"Обеля",
      "line": "blue"
   },
   {
      "lat":42.67138300000001,
      "lon":23.35092599999996,
      "name":"Жолио Кюри",
      "line": "red"
   },
   {
      "lat":42.66288100000001,
      "lon":23.35790700000007,
      "name":"Г.М. Димитров",
      "line": "red"
   },
   {
      "lat":42.6586,
      "lon":23.364326000000005,
      "name":"Мусагеница",
      "line": "red"
   },
   {
      "lat":42.65418440000001,
      "lon":23.371921499999985,
      "name":"Младост 1",
      "line": "red"
   },
   {
      "lat":42.64804699999999,
      "lon":23.376618000000008,
      "name":"Александър Малинов",
      "line": "red"
   },
   {
      "lat":42.6685137,
      "lon":23.402089299999943,
      "name":"Искърско шосе",
      "line": "red"
   },
   {
      "lat":42.67644579999999,
      "lon":23.410189700000046,
      "name":"Софийска Света гора",
      "line": "red"
   },
   {
      "lat":42.6415296,
      "lon":23.372748600000023,
      "name":"Акад. Ал. Теодоров-Балан",
      "line": "red"
   },
   {
      "lat":42.688065,
      "lon":23.41612250000003,
      "name":"Летище София",
      "line": "red"
   },
   {
      "lat":42.646468,
      "lon":23.384001000000012,
      "name":"Младост 3",
      "line":"red"
   },
   {
      "lat":42.6498542,
      "lon":23.39383739999994,
      "name":"Интер Експо Център - Цариградско шосе",
      "line": "red"
  },
   {"lat":42.6298906,
       "lon":23.373151099999973,
       "name":"Бизнес Парк София",
       "line": "red"}
]
